[
  {
    "id": 1,
    "name": "Théâtre Fémina",
    "phone": "0533491300",
    "address": "10 Rue de Grassi, 33000 Bordeaux",
    "lat": 44.841384603635596,
    "lng": -0.5769543430068861,
    "tagId": 4,
    "neighborhoodId": 3
  },
  {
    "id": 2,
    "name": "Opéra national de Bordeaux",
    "phone": "0556008595",
    "address": "Pl. de la Comédie, 33000 Bordeaux",
    "lat": 44.84259101682799,
    "lng": -0.5742002426934364,
    "tagId": 4,
    "neighborhoodId": 3
  },
  {
    "id": 3,
    "name": "Casino Barrière",
    "phone": "0556694900",
    "address": "Rue du Cardinal Richaud, 33300 Bordeaux",
    "lat": 44.88836004246398,
    "lng": -0.5659243426923263,
    "tagId": 3,
    "neighborhoodId": 4
  },
  {
    "id": 4,
    "name": "TnBA",
    "phone": "0556333680",
    "address": "3 Pl. Pierre Renaudel, 33800 Bordeaux",
    "lat": 44.83139823573401,
    "lng": -0.5611732347253159,
    "tagId": 4,
    "neighborhoodId": 5
  },
  {
    "id": 5,
    "name": "Utopia",
    "phone": "0556520003",
    "address": "5 Pl. Camille Jullian, 33000 Bordeaux",
    "lat": 44.83908236587856,
    "lng": -0.5724267310366957,
    "tagId": 1,
    "neighborhoodId": 3
  },
  {
    "id": 6,
    "name": "Rock School Barbey",
    "phone": "0556336600",
    "address": "18 Cr Barbey, 33800 Bordeaux",
    "lat": 44.826975465728815,
    "lng": -0.563440931036958,
    "tagId": 3,
    "neighborhoodId": 5
  },
  {
    "id": 7,
    "name": "Darwin Eco-système",
    "phone": "0556775206",
    "address": "87 Quai des Queyries, 33100 Bordeaux",
    "lat": 44.849548041403395,
    "lng": -0.5603480426932533,
    "tagId": 7,
    "neighborhoodId": 1
  },
  {
    "id": 8,
    "name": "Musée des Beaux-Arts",
    "phone": "0556102056",
    "address": "20 Cr d'Albret, 33000 Bordeaux",
    "lat": 44.83736621684933,
    "lng": -0.5805430015889727,
    "tagId": 2,
    "neighborhoodId": 3
  },
  {
    "id": 10,
    "name": "Parvis des Archives",
    "phone": "0556102055",
    "address": "Parvis des Archives, 33100 Bordeaux",
    "lat": 44.84685156764566,
    "lng": -0.5540248015887507,
    "tagId": 8,
    "neighborhoodId": 1
  },
  {
    "id": 21,
    "name": "Bassin des Lumières",
    "phone": "0535000090",
    "address": "Imp. Brown de Colstoun, 33300 Bordeaux",
    "lat": 44.870831866271715,
    "lng": -0.5598117426927287,
    "tagId": 8,
    "neighborhoodId": 4
  },
  {
    "id": 22,
    "name": "Bibliothèque Mériadeck",
    "phone": "0556103000",
    "address": "85 Cr Maréchal Juin, 33000 Bordeaux",
    "lat": 44.83525232729538,
    "lng": -0.5865467482162819,
    "tagId": 5,
    "neighborhoodId": 3
  },
  {
    "id": 27,
    "name": "Musée des Arts Décoratifs et du Design",
    "phone": "0556101400",
    "address": "39 Rue Bouffard, 33000 Bordeaux",
    "lat": 44.83894551877456,
    "lng": -0.5797072083344476,
    "tagId": 2,
    "neighborhoodId": 3
  },
  {
    "id": 28,
    "name": "Regard 9",
    "phone": "0615532926",
    "address": "15 Rue du Professeur Demons, 33000 Bordeaux",
    "lat": 44.84690587053391,
    "lng": -0.5790168353163428,
    "tagId": 8,
    "neighborhoodId": 2
  },
  {
    "id": 29,
    "name": "Cour Mably - Salle Capitulaire",
    "phone": "0524576560",
    "address": "3 Rue Mably, 33000 Bordeaux",
    "lat": 44.84301899407286,
    "lng": -0.5765946960661743,
    "tagId": 8,
    "neighborhoodId": 3
  },
  {
    "id": 30,
    "name": "Bibliothèque interdisciplinaire",
    "phone": null,
    "address": "125 Cr d'Alsace-et-Lorraine, 33000 Bordeaux",
    "lat": 44.8375014883847,
    "lng": -0.5758192721412393,
    "tagId": 2,
    "neighborhoodId": 3
  },
  {
    "id": 31,
    "name": "Bibliothèque Capucins Saint-Michel",
    "phone": "0556911879",
    "address": "10-12 Pl. des Capucins, 33800 Bordeaux",
    "lat": 44.83080047120411,
    "lng": -0.5669627408594577,
    "tagId": 5,
    "neighborhoodId": 5
  },
  {
    "id": 32,
    "name": "Bibliothèque universitaire des Sciences de l'Homme",
    "phone": "0557571930",
    "address": "3 ter Pl. de la Victoire, 33000 Bordeaux",
    "lat": 44.83096683975657,
    "lng": -0.5716286782755294,
    "tagId": 5,
    "neighborhoodId": 5
  },
  {
    "id": 33,
    "name": "Bibliothèque Jardin Public",
    "phone": "0556813891",
    "address": "Terrasse du Jardin Public, 33000 Bordeaux",
    "lat": 44.84793024139692,
    "lng": -0.5798265015887343,
    "tagId": 5,
    "neighborhoodId": 2
  },
  {
    "id": 34,
    "name": "Bibliothèque Bordeaux-Lac",
    "phone": null,
    "address": "Pl. Ginette Neveu, 33300 Bordeaux",
    "lat": 44.87375761826393,
    "lng": -0.5728831015881292,
    "tagId": 5,
    "neighborhoodId": 4
  },
  {
    "id": 35,
    "name": "Bibliothèque Flora Tristan",
    "phone": "0524996012",
    "address": "1 Place d'Armagnac, 33800 Bordeaux",
    "lat": 44.82162862249235,
    "lng": -0.5505177824097246,
    "tagId": 5,
    "neighborhoodId": 6
  },
  {
    "id": 36,
    "name": "Bibliothèque La Bastide",
    "phone": "0556861528",
    "address": "18-22 Rue Alexander Fleming, 33100 Bordeaux",
    "lat": 44.84412159226172,
    "lng": -0.5421923549615875,
    "tagId": 5,
    "neighborhoodId": 1
  },
  {
    "id": 37,
    "name": "Bibliothèque Bacalan",
    "phone": "0556508702",
    "address": "196 Rue Achard, 33300 Bordeaux",
    "lat": 44.87271350498661,
    "lng": -0.5464218703262187,
    "tagId": 5,
    "neighborhoodId": 7
  },
  {
    "id": 38,
    "name": "Bibliothèque Jean de la Ville de Mirmont",
    "phone": "0524996030",
    "address": "Pl. de l'Église Saint-Augustin, 33000 Bordeaux",
    "lat": 44.8329439244517,
    "lng": -0.6117127304454392,
    "tagId": 5,
    "neighborhoodId": 8
  },
  {
    "id": 39,
    "name": "Bibliothèque Grand Parc",
    "phone": "0556502835",
    "address": "34 Rue Pierre Trebod, 33300 Bordeaux",
    "lat": 44.857693084216834,
    "lng": -0.5840234942315727,
    "tagId": 5,
    "neighborhoodId": 9
  },
  {
    "id": 40,
    "name": "Bibliothèque Pierre Veilletet",
    "phone": "0524576760",
    "address": "21 Rue Domion, 33200 Bordeaux",
    "lat": 44.85745629077585,
    "lng": -0.6234397015885063,
    "tagId": 5,
    "neighborhoodId": 10
  },
  {
    "id": 41,
    "name": "Muséum de Bordeaux - sciences et nature",
    "phone": "0524576530",
    "address": "5 Pl. Bardineau, 33000 Bordeaux",
    "lat": 44.84826236795426,
    "lng": -0.5800783181745197,
    "tagId": 2,
    "neighborhoodId": 3
  },
  {
    "id": 42,
    "name": "CAPC Musée d’Art Contemporain de Bordeaux",
    "phone": "0556008150",
    "address": "7 Rue Ferrere, 33000 Bordeaux",
    "lat": 44.84828854464544,
    "lng": -0.5721623310364442,
    "tagId": 2,
    "neighborhoodId": 3
  },
  {
    "id": 43,
    "name": "Musée d'Aquitaine",
    "phone": "0556015100",
    "address": "20 Cr Pasteur, 33000 Bordeaux",
    "lat": 44.83553849437288,
    "lng": -0.5750307034432602,
    "tagId": 2,
    "neighborhoodId": 5
  },
  {
    "id": 44,
    "name": "Musée des Arts Décoratifs et du Design",
    "phone": "0556101400",
    "address": "39 Rue Bouffard, 33000 Bordeaux",
    "lat": 44.83894551877456,
    "lng": -0.5797098905435151,
    "tagId": 2,
    "neighborhoodId": 3
  },
  {
    "id": 46,
    "name": "Base sous-marine",
    "phone": null,
    "address": "284 Bd Alfred Daney, 33300 Bordeaux",
    "lat": 44.87053401582365,
    "lng": -0.5596667015882166,
    "tagId": 2,
    "neighborhoodId": 7
  },
  {
    "id": 47,
    "name": "La Cité du Vin",
    "phone": "0556162020",
    "address": "134 Quai de Bacalan, 33300 Bordeaux",
    "lat": 44.862400990877624,
    "lng": -0.550630218767907,
    "tagId": 2,
    "neighborhoodId": 7
  },
  {
    "id": 48,
    "name": "Musée National des Douanes",
    "phone": "0970275766",
    "address": "1 Pl. de la Bourse, 33000 Bordeaux",
    "lat": 44.84083101309581,
    "lng": -0.5699794310366282,
    "tagId": 2,
    "neighborhoodId": 3
  },
  {
    "id": 49,
    "name": "Musée d’Ethnographie",
    "phone": "0557573161",
    "address": "3 Pl. de la Victoire, 33000 Bordeaux",
    "lat": 44.83092573942345,
    "lng": -0.5701891837982055,
    "tagId": 2,
    "neighborhoodId": 5
  },
  {
    "id": 50,
    "name": "Musée Mer Marine",
    "phone": "0557197773",
    "address": "89 Rue des Étrangers, 33300 Bordeaux",
    "lat": 44.867302807584565,
    "lng": -0.5543424396713191,
    "tagId": 2,
    "neighborhoodId": 7
  },
  {
    "id": 51,
    "name": "Musée de l’Histoire Maritime de Bordeaux",
    "phone": "0554510639",
    "address": "31 Rue Borie, 33300 Bordeaux",
    "lat": 44.85426353999683,
    "lng": -0.5689396721408638,
    "tagId": 2,
    "neighborhoodId": 2
  },
  {
    "id": 52,
    "name": "Musée du Vin et du Négoce de Bordeaux",
    "phone": "0556901913",
    "address": "41 Rue Borie, 33000 Bordeaux",
    "lat": 44.854449115916786,
    "lng": -0.5693019133971206,
    "tagId": 2,
    "neighborhoodId": 2
  },
  {
    "id": 53,
    "name": "Théâtre Trianon",
    "phone": "0556201320",
    "address": "6 Rue Franklin, 33000 Bordeaux",
    "lat": 44.842273537729525,
    "lng": -0.5780630721411422,
    "tagId": 4,
    "neighborhoodId": 3
  },
  {
    "id": 54,
    "name": "Blonde Vénus",
    "phone": null,
    "address": "Cr Henri Brunet, 33300 Bordeaux",
    "lat": 44.8663072404443,
    "lng": -0.5593657310360132,
    "tagId": 3,
    "neighborhoodId": 7
  },
  {
    "id": 55,
    "name": "Cap Sciences",
    "phone": "0556010707",
    "address": "Hangar 20, Quai de Bacalan, 33300 Bordeaux",
    "lat": 44.859459892218695,
    "lng": -0.5545558267918481,
    "tagId": 6,
    "neighborhoodId": 2
  },
  {
    "id": 56,
    "name": "Théâtre des Chartrons",
    "phone": "0556376344",
    "address": "170 Cr du Médoc Galeries Tatry, 33300 Bordeaux",
    "lat": 44.86293296503393,
    "lng": -0.573683031036123,
    "tagId": 4,
    "neighborhoodId": 2
  },
  {
    "id": 57,
    "name": "Conservatoire de Bordeaux",
    "phone": "0556929696",
    "address": "22 Quai Sainte-Croix, 33800 Bordeaux",
    "lat": 44.83150760526426,
    "lng": -0.5593499445078693,
    "tagId": 3,
    "neighborhoodId": 5
  },
  {
    "id": 58,
    "name": "Espace Saint-Rémi",
    "phone": "0556812844",
    "address": "4 Rue Jouannet, 33000 Bordeaux",
    "lat": 44.841713011824176,
    "lng": -0.5719854648908151,
    "tagId": 8,
    "neighborhoodId": 3
  },
  {
    "id": 59,
    "name": "Glob Théâtre",
    "phone": "0556698513",
    "address": "69 Rue Joséphine, 33300 Bordeaux",
    "lat": 44.86052096342342,
    "lng": -0.5617823798160421,
    "tagId": 4,
    "neighborhoodId": 2
  },
  {
    "id": 60,
    "name": "Café-théâtre Improvidence",
    "phone": "0953367072",
    "address": "19 Rue des Augustins, 33000 Bordeaux",
    "lat": 44.832482521159996,
    "lng": -0.5719138310368346,
    "tagId": 3,
    "neighborhoodId": 5
  },
  {
    "id": 61,
    "name": "Café-théâtre Drôle de Scène",
    "phone": "0680280240",
    "address": "39 Rue Paul Verlaine, 33000 Bordeaux",
    "lat": 44.85395241726016,
    "lng": -0.5770099936202634,
    "tagId": 3,
    "neighborhoodId": 9
  },
  {
    "id": 62,
    "name": "La Grande Poste",
    "phone": "0556015390",
    "address": "7 Rue du Palais Gallien, 33000 Bordeaux",
    "lat": 44.84194366591409,
    "lng": -0.5813721377821313,
    "tagId": 4,
    "neighborhoodId": 3
  },
  {
    "id": 63,
    "name": "Le Cerisier - Cie Apsaras théâtre",
    "phone": "0954116301",
    "address": "7-11 Rue Joseph Brunet, 33000 Bordeaux",
    "lat": 44.87425954493868,
    "lng": -0.5461591149253882,
    "tagId": 4,
    "neighborhoodId": 7
  },
  {
    "id": 64,
    "name": "Le Petit Théâtre",
    "phone": "0556510473",
    "address": "10 Rue du Faubourg des Arts, 33000 Bordeaux",
    "lat": 44.855395587955854,
    "lng": -0.5678023015885517,
    "tagId": 4,
    "neighborhoodId": 2
  },
  {
    "id": 65,
    "name": "Le Poquelin Théâtre",
    "phone": "0687549605",
    "address": "Les Bains-douches, 9 Rue Etobon Chenebier, 33100 Bordeaux",
    "lat": 44.84190755788137,
    "lng": -0.5522475426934166,
    "tagId": 4,
    "neighborhoodId": 1
  },
  {
    "id": 66,
    "name": "Théâtre des Beaux-Arts",
    "phone": "0556218530",
    "address": "2 Rue des Beaux Arts, 33800 Bordeaux",
    "lat": 44.83037445066711,
    "lng": -0.5594592457176025,
    "tagId": 4,
    "neighborhoodId": 5
  },
  {
    "id": 67,
    "name": "Théâtre Victoire",
    "phone": "0556060887",
    "address": "18 Rue des Augustins, 33000 Bordeaux",
    "lat": 44.832382534887614,
    "lng": -0.5715274015891286,
    "tagId": 4,
    "neighborhoodId": 5
  },
  {
    "id": 68,
    "name": "Cinéma MEGARAMA Bordeaux",
    "phone": null,
    "address": "7 Quai des Queyries, 33100 Bordeaux",
    "lat": 44.8417564697075,
    "lng": -0.5613829876405467,
    "tagId": 1,
    "neighborhoodId": 1
  },
  {
    "id": 69,
    "name": "Cinéma CGR Bordeaux Le Français",
    "phone": "0892688588",
    "address": "6 Rue Fénelon, 33000 Bordeaux",
    "lat": 44.84277744314459,
    "lng": -0.5787406166407006,
    "tagId": 1,
    "neighborhoodId": 3
  },
  {
    "id": 70,
    "name": "UGC Ciné Cité Bordeaux",
    "phone": "0146372824",
    "address": "13-15 Rue Georges Bonnac, 33000 Bordeaux",
    "lat": 44.840595146300856,
    "lng": -0.5819568342148316,
    "tagId": 1,
    "neighborhoodId": 3
  },
  {
    "id": 71,
    "name": "UGC Ciné Cité Bassins à Flot",
    "phone": "0146372824",
    "address": "6 quai Virginie Hériot Bassins N°2, 33300 Bordeaux",
    "lat": 44.866590194782326,
    "lng": -0.5610372416275425,
    "tagId": 1,
    "neighborhoodId": 7
  },
  {
    "id": 72,
    "name": "Athénée Libertaire",
    "phone": "0556810191",
    "address": "7 Rue du Muguet, 33000 Bordeaux",
    "lat": 44.83706561753375,
    "lng": -0.5687053924192511,
    "tagId": 3,
    "neighborhoodId": 3
  },
  {
    "id": 73,
    "name": "L'apollo bar",
    "phone": "0556012505",
    "address": "19 Pl. Fernand Lafargue, 33000 Bordeaux",
    "lat": 44.83731448837463,
    "lng": -0.5716786310367215,
    "tagId": 3,
    "neighborhoodId": 3
  },
  {
    "id": 74,
    "name": "Café brun",
    "phone": "0556522049",
    "address": "45 Rue Saint-Rémi, 33000 Bordeaux",
    "lat": 44.84130306961415,
    "lng": -0.5728181065001958,
    "tagId": 3,
    "neighborhoodId": 3
  },
  {
    "id": 75,
    "name": "Café des Moines",
    "phone": "0556920161",
    "address": "12 Rue des Menuts, 33000 Bordeaux",
    "lat": 44.83505876170863,
    "lng": -0.5678769377822489,
    "tagId": 3,
    "neighborhoodId": 3
  },
  {
    "id": 76,
    "name": "Club Des Poètes disparates",
    "phone": "0622535838",
    "address": "4 Rue Gratiolet, 33000 Bordeaux",
    "lat": 44.832514079541454,
    "lng": -0.5707099997548724,
    "tagId": 3,
    "neighborhoodId": 5
  },
  {
    "id": 77,
    "name": "Cafe Pompier",
    "phone": "0556916528",
    "address": "7 Pl. Pierre Renaudel, 33800 Bordeaux",
    "lat": 44.83061808580891,
    "lng": -0.5614517954550496,
    "tagId": 3,
    "neighborhoodId": 5
  },
  {
    "id": 78,
    "name": "Casa Latina Bordeaux",
    "phone": "0557871580",
    "address": "59 Quai des Chartrons, 33300 Bordeaux",
    "lat": 44.85262668919606,
    "lng": -0.5681770015886062,
    "tagId": 3,
    "neighborhoodId": 2
  },
  {
    "id": 79,
    "name": "IBOAT",
    "phone": null,
    "address": "Bassin à Flot n°, 1 Cr Henri Brunet, 33300 Bordeaux",
    "lat": 44.86585064639409,
    "lng": -0.559090593008586,
    "tagId": 3,
    "neighborhoodId": 7
  },
  {
    "id": 80,
    "name": "Hangar Darwin",
    "phone": null,
    "address": "87 Quai des Queyries, 33100 Bordeaux",
    "lat": 44.848722621380844,
    "lng": -0.5593064586297536,
    "tagId": 3,
    "neighborhoodId": 1
  },
  {
    "id": 81,
    "name": "La Guinguette Chez Alriq",
    "phone": "0556865849",
    "address": "ZA Quai des Queyries, Port Bastide, 33100 Bordeaux",
    "lat": 44.85063258088074,
    "lng": -0.5620850304280816,
    "tagId": 3,
    "neighborhoodId": 1
  },
  {
    "id": 82,
    "name": "Le Fiacre",
    "phone": "0951531277",
    "address": "42 Rue de Cheverus, 33000 Bordeaux",
    "lat": 44.837748356536274,
    "lng": -0.5755221420366454,
    "tagId": 3,
    "neighborhoodId": 3
  },
  {
    "id": 83,
    "name": "Arc en rêve",
    "phone": "0556527836",
    "address": "Entrepôt, 7 Rue Ferrere, 33000 Bordeaux",
    "lat": 44.84831309681853,
    "lng": -0.5721562951681649,
    "tagId": 8,
    "neighborhoodId": 3
  },
  {
    "id": 84,
    "name": "Archives Bordeaux Métropole",
    "phone": "0556102055",
    "address": "Parvis des Archives, 33100 Bordeaux",
    "lat": 44.8470633658492,
    "lng": -0.5540033439213907,
    "tagId": 8,
    "neighborhoodId": 1
  },
  {
    "id": 85,
    "name": "Archives départementales",
    "phone": "0556996600",
    "address": "72-78 Cr Balguerie Stuttenberg, 33000 Bordeaux",
    "lat": 44.857023110350944,
    "lng": -0.5685674216678213,
    "tagId": 8,
    "neighborhoodId": 2
  },
  {
    "id": 86,
    "name": "Bordeaux Patrimoine Mondial",
    "phone": "0556480424",
    "address": "2-8 Pl. de la Bourse, 33000 Bordeaux",
    "lat": 44.84091903576804,
    "lng": -0.5704293426934611,
    "tagId": 8,
    "neighborhoodId": 3
  },
  {
    "id": 87,
    "name": "La Méca",
    "phone": "0547303467",
    "address": "Parvis Corto Maltese, Quai de Paludate, 33800 Bordeaux",
    "lat": 44.828764695972446,
    "lng": -0.5525753880981649,
    "tagId": 8,
    "neighborhoodId": 6
  },
  {
    "id": 88,
    "name": "Théâtre du Pont Tounant",
    "phone": "0556110611",
    "address": "13 Rue Charlevoix de Villers, 33300 Bordeaux",
    "lat": 44.87080070263787,
    "lng": -0.5484276660063763,
    "tagId": 4,
    "neighborhoodId": 7
  },
  {
    "id": 89,
    "name": "Fabrique Pola",
    "phone": "0556406285",
    "address": "10 Quai de Brazza, 33100 Bordeaux",
    "lat": 44.85436061535619,
    "lng": -0.5548529132453874,
    "tagId": 8,
    "neighborhoodId": 1
  },
  {
    "id": 90,
    "name": "Le 308 - Maison de l'Architecture en Nouvelle-Aquitaine",
    "phone": null,
    "address": "308 Av. Thiers, 33100 Bordeaux",
    "lat": 44.8503964675724,
    "lng": -0.544015659872715,
    "tagId": 8,
    "neighborhoodId": 1
  },
  {
    "id": 91,
    "name": "Villa Bourbon",
    "phone": "0556507490",
    "address": "35 bis Rue Bourbon, 33300 Bordeaux",
    "lat": 44.860504180178054,
    "lng": -0.5569522488470876,
    "tagId": 8,
    "neighborhoodId": 2
  },
  {
    "id": 92,
    "name": "La Réserve",
    "phone": null,
    "address": "91 Rue de Marmande, 33800 Bordeaux",
    "lat": 44.81997406553466,
    "lng": -0.5767257242916213,
    "tagId": 8,
    "neighborhoodId": 11
  },
  {
    "id": 93,
    "name": "Atelier TçPç",
    "phone": "0682889826",
    "address": "1 Rue Jean Artus, 33300 Bordeaux",
    "lat": 44.86146186989197,
    "lng": -0.5824970449911625,
    "tagId": 7,
    "neighborhoodId": 9
  },
  {
    "id": 94,
    "name": "Monts et Merveilles",
    "phone": "0951550893",
    "address": "13 bis Rue de Son-Tay, 33800 Bordeaux",
    "lat": 44.826265097183835,
    "lng": -0.5530353794984577,
    "tagId": 7,
    "neighborhoodId": 6
  },
  {
    "id": 95,
    "name": "Act’Image",
    "phone": "0609730580",
    "address": "23 Rue des Retaillons, 33300 Bordeaux",
    "lat": 44.85434226322032,
    "lng": -0.5711390015885865,
    "tagId": 7,
    "neighborhoodId": 3
  },
  {
    "id": 96,
    "name": "Association Mc2a",
    "phone": "0556510083",
    "address": "1 Rue Jean Artus, 33300 Bordeaux",
    "lat": 44.86146831437326,
    "lng": -0.5825044954543184,
    "tagId": 7,
    "neighborhoodId": 9
  },
  {
    "id": 97,
    "name": "Jardin botanique",
    "phone": null,
    "address": "Esp. Linné, 33100 Bordeaux",
    "lat": 44.84652176629758,
    "lng": -0.5638998505853848,
    "tagId": 8,
    "neighborhoodId": 1
  }
]
